[
    {
    "name": "Samaj Samata Ani Vikas Sanstha",	
    "description":"Children,Civic Issues,Dalit Upliftment,Education & Literacy,Health & Family Welfare,Human Rights,Legal Awareness & Aid,Micro Finance (SHGs),Rural Development & Poverty Alleviation,Urban Development & Poverty Alleviation,Vocational Training,Women's Development & Empowerment,Youth Affairs",
    "address":"Samaj Samata Ani Vikas Santha 2051, Dinkar Appt. Behind Suvidha Society, Near Manisha Nagar Gate No. 3, Manisha Nagar, Kalwa, Thane",
    "lat":19.20344078696947,
    "lon":72.99307670935625
    },
    {
    "name":"Helping Hand Foundation",
    "description":"Aged/Elderly,Children,Dalit Upliftment,Education & Literacy,Health & Family Welfare,HIV/AIDS,Legal Awareness & Aid,Nutrition,Rural Development & Poverty Alleviation,Vocational Training,Women's Development & Empowerment,Youth Affairs,Civic Issues,Disaster Management,Human Rights,Minority Issues,Any Other",
    "address":"302, Ganesh Society No: 02 Co-Op Hsg Soc Ltd., Uttan Navghar Church Road, Uttan, Bhayander West, Tal-Dist, Thane - 401106 - Maharastra - India",
    "lat":19.189782238881033,
    "lon": 72.95210697035499
    },
    {
    "name":"Gurukrupa Vikas Sanstha",
    "description":"NGO",
    "address":"Manpada Rd, near Renuka Mata Mandir, near Sarvodaya Angan, Pandurangwadi, SBI Colony, Dombivli East, Dombivli, Maharashtra 421201",
    "lat":19.209700322759012, 
    "lon":73.09118400321887
    },
    {
    "name":"AKSHAYA SAMAJIK BAHUUDDHESIYA SEVABHAVI SANSTHA",
    "description":"Agriculture,Animal Husbandry, Dairying & Fisheries,Children,Civic Issues,Dalit Upliftment,Drinking Water,Education & Literacy,Aged/Elderly,Environment & Forests,Food Processing,Health & Family Welfare,HIV/AIDS,Human Rights,Information & Communication Technology,Legal Awareness & Aid,Micro Finance (SHGs),Micro Small & Medium Enterprises,Minority Issues,Panchayati Raj,Rural Development & Poverty Alleviation,Sports,Tourism,Tribal Affairs,Urban Development & Poverty Alleviation,Vocational Training,Women's Development & Empowerment,Youth Affairs",
    "lat":19.194875912534005, 
    "lon":72.98796786651863
    },
    {
    "name":"mother foundation charitable trust",
    "description":"Children,Civic Issues,Education & Literacy,Aged/Elderly,HIV/AIDS,Nutrition,Rural Development & Poverty Alleviation,Health & Family Welfare,Women's Development & Empowerment,Environment & Forests,Health & Family Welfare,Human Rights,Labour & Employment,Panchayati Raj,Right to Information & Advocacy,Tribal Affairs,Urban Development & Poverty Alleviation,Vocational Training,Any Other",
    "address":"302,3RD Fl,sai jagannath society,plot-92,sector-31A, vashigaon,Navimumbai",
    "lat":19.078567804411048, 
    "lon":72.99900652571363
    },
    {
    "name":"ABM Samaj Prabodhan Sanstha",
    "description":"Children,Dalit Upliftment,Education & Literacy,Health & Family Welfare,Tribal Affairs,Women's Development & Empowerment,Youth Affairs",
    "address":"SECOND FLOOR TRISHUL APARTMENT KATEMANVALI KALYAN EAST",
    "lat":19.228860027158373,
    "lon":73.14006551481083
    },
    {
    "name":"Dhyas Communal Development foundation",
    "description":"Children,Education & Literacy,Health & Family Welfare,Legal Awareness & Aid,Micro Finance (SHGs),Micro Small & Medium Enterprises,Nutrition,Urban Development & Poverty Alleviation,Vocational Training,Women's Development & Empowerment",
    "address":"Rahul Nagar, Opp.Block No.287, Behind Badri Prasad Tabela,Sambhaji Chowk Ulhasnagar-4,Kalyan,Thane,Maharashtra,421004",
    "lat":19.210959771921477, 
    "lon":73.16145943520954
    },
    {
    "name":"PAGARIA WELFARE FOUNDATION",
    "description":"Children,Education & Literacy,Environment & Forests,Health & Family Welfare,Rural Development & Poverty Alleviation,Vocational Training,Women's Development & Empowerment,Youth Affairs",
    "address":"902 MAYURESH SQUARE , PLOT NO 17 , SECTOR 15 , CBD BELAPUR , NAVI MUMBAI , MAHARASHTRA -400614",
    "lat":19.00968321303244, 
    "lon":73.03031115898679
    },
    {
    "name":"TAREK WELFARE FOUNDATION",
    "description":"Agriculture,Animal Husbandry, Dairying & Fisheries,Art & Culture,Biotechnology,Children,Civic Issues,Dalit Upliftment,Differently Abled,Disaster Management,Drinking Water,Education & Literacy,Aged/Elderly,Environment & Forests,Food Processing,Health & Family Welfare,HIV/AIDS,Housing,Human Rights,Information & Communication Technology,Labour & Employment,Land Resources,Legal Awareness & Aid,Micro Finance (SHGs),Micro Small & Medium Enterprises,Minority Issues,New & Renewable Energy,Nutrition,Panchayati Raj,Prisoner's Issues,Right to Information & Advocacy,Rural Development & Poverty Alleviation,Science & Technology,Scientific & Industrial Research,Sports,Tourism,Tribal Affairs,Urban Development & Poverty Alleviation,Vocational Training,Water Resources,Women's Development & Empowerment,Any Other",
    "address":"OFFICE NO- A 403, PLOT NO-21, SHIV CHAMBER SECTOR-11, CBD BELAPUR MUMBAI Thane MH 400614 IN",
    "lat":19.017881489993854, 
    "lon":73.04228000687775
    },
    {
    "name":"Asude Foundation",
    "description":"Children,Education & Literacy,Labour & Employment",
    "address":"A/103, New Madhuban CHSL, Sai Baba Nagar, Mira Road East",
    "lat":19.283777579863536, 
    "lon":72.86978677737602
    },
    {
    "name":"HUMAN RIGHTS COUNCIL OF INDIA",
    "description":"Children,Civic Issues,Disaster Management,Education & Literacy,Aged/Elderly,Environment & Forests,Food Processing,Health & Family Welfare,HIV/AIDS,Housing,Human Rights,Information & Communication Technology,Labour & Employment,Land Resources,Legal Awareness & Aid,Micro Finance (SHGs),Micro Small & Medium Enterprises,New & Renewable Energy,Right to Information & Advocacy,Rural Development & Poverty Alleviation,Science & Technology,Scientific & Industrial Research,Tourism,Tribal Affairs,Urban Development & Poverty Alleviation,Vocational Training,Water Resources,Women's Development & Empowerment,Youth Affairs,Any Other,Differently Abled,Drinking Water,Minority Issues,Sports",
    "address":"HRC BHAVAN, WESTERN EXPRESS HIGHWAY, NEAR BHARAT PETROL PUMP OPPOSITE MIRA GOAN ROAD, KASHIMIRA, MIRA ROAD EAST MIRA BHAYANDAR, MARASHTRA 401107",
    "lat":19.271619229608312, 
    "lon":72.8811096723029
    },
    {
    "name":"WAY TRUE LIFE Charitable Society",
    "description":"Children,Education & Literacy,Health & Family Welfare,HIV/AIDS,Legal Awareness & Aid,Nutrition,Vocational Training,Women's Development & Empowerment,Agriculture,Dalit Upliftment,Disaster Management,Drinking Water,Human Rights,Micro Finance (SHGs),Micro Small & Medium Enterprises,Panchayati Raj,Right to Information & Advocacy,Rural Development & Poverty Alleviation,Water Resources,Skill Development",
    "address":"New Samrat Colony 1/2, Nr. RTO,Opp Kene Complex,Birla College Rd Kalyan (w) -421301",
    "lat":19.24779539960875,  
    "lon":73.1468999323608
    },
    {
    "name":"Ashwamedh Foundation",
    "description":"Children,Education & Literacy,Children,Education & Literacy,Women's Development & Empowerment",
    "address":"C/o Govind Dodamani A/B-401, Sindhu Garden CHS.Y.K.Nagar, Virar (W), Thane -401303",
    "lat":19.458520102671585, 
    "lon":72.80234612257578
    },
    {
    "name":"national human rights and women child development commission",
    "description":"Children,Civic Issues,Dalit Upliftment,Differently Abled,Disaster Management,Drinking Water,Education & Literacy,Aged/Elderly,Environment & Forests,Health & Family Welfare,HIV/AIDS,Housing,Human Rights,Labour & Employment,Legal Awareness & Aid,Micro Small & Medium Enterprises,Minority Issues,Panchayati Raj,Prisoner's Issues,Right to Information & Advocacy,Rural Development & Poverty Alleviation,Sports,Tourism,Tribal Affairs,Urban Development & Poverty Alleviation,Vocational Training",
    "address":"At- Shnati Niketan Behind Durga Mata Temole Awadhnagar Navapur Road Boisar",
    "lat":19.803952704979796, 
    "lon": 72.75819388765632
    },
    {
    "name":"PEHCHAAN LIVE FOUNDATION",
    "description":"Children,Education & Literacy,Health & Family Welfare,Sports",
    "address":"403, Nisarg CHS, Plot no. A-230, Sector 19A,Koperkhairane, Navi Mumbai, India 400709",
    "lat":19.10787862958585, 
    "lon":72.99894626246433
    },
    {
    "name":"Prangan Foundation",
    "description":"Children,Education & Literacy",
    "address":"304, Raj Heritage, Near Rokhade bldg,Retibunder Road, Prem Nagar, DombivliW, Thane 421202",
    "lat":19.227831150752362,  
    "lon":73.07997415474856
    },
    {
    "name":"Thakar Educational and Welfare Society",
    "description":"Children,Education & Literacy,Environment & Forests,Health & Family Welfare,Information & Communication Technology,Science & Technology,Sports,Vocational Training,Women's Development & Empowerment,Youth Affairs,Skill Development",
    "address":"C/O. Rajesh M Thakar, 242/2 Babu Seth Bldg , ground floor,behind Kamala hotel, behind Jain Temple, Agra road, Bhiwandi421302, Dist: Thane (Maharashtra)",
    "lat":19.29415735450415,  
    "lon":73.06080568209406
    },
    {
    "name":"Humanity Welfare Foundation",
    "description":"Food Processing,Any Other,Animal Husbandry, Dairying & Fisheries,Children,Rural Development & Poverty Alleviation,Youth Affairs",
    "address":"306 Fouzan Apartment, Bombay Colony, Mumbra, Thane 400612",
    "lat":19.17647571058937, 
    "lon":73.02234370632188
    },
    {
    "name":"Dattaram Foundation",
    "description":"Children,Health & Family Welfare,Any Other",
    "address":"Flat No. 302, Shreepad Apt ,Mohananand Nagar , Kulgaon , Manjarli ,Badlapur (w), Ambarnath, Dist. Thane-421503",
    "lat":19.15535392203733, 
    "lon":73.36028572626961
    },
    {
    "name":"The Paper Revolution Foundation",
    "description":"Children,Civic Issues,Education & Literacy,Health & Family Welfare,Rural Development & Poverty Alleviation,Sports,Tribal Affairs,Youth Affairs,Skill Development",
    "address":"203/A, G K Apartment, Opp. Dev Daya Park, Pokharan Road No. 1, Samta Nagar, Thane (W)",
    "lat":19.207643504128725,  
    "lon":72.96414829373326
    },
    {
    "name":"HARE KRISHNA FOUNDATION",
    "description":"Children,Food Processing,Animal Welfare",
    "address":"02, Girish Tower, Thakurpada, Mumbra, Thane",
    "lat":19.184883338029326, 
    "lon":73.02104828024027
    },
    {
    "name":"SAMMYAK BAHUUDDESHIYA SAMAJIK VIKAS SANSTHA",
    "description":"Animal Husbandry, Dairying & Fisheries,Aged/Elderly,Agriculture,Art & Culture,Biotechnology,Children,Civic Issues,Differently Abled,Disaster Management,Dalit Upliftment,Drinking Water,Education & Literacy,Environment & Forests,Food Processing,Health & Family Welfare,HIV/AIDS,Housing,Human Rights,Information & Communication Technology,Legal Awareness & Aid,Labour & Employment,Land Resources,Micro Finance (SHGs),Minority Issues,Micro Small & Medium Enterprises",
    "address":"Vishwakarmanagar,Infront of New Belapur Road,Near Shantidoot Buddhavihar,Kalwa,Thane-400605",
    "lat":19.194849041064234, 
    "lon":72.98780400924642
    },
    {
    "name":"Jeevan Asha Charitable Society",
    "description":"Children,Education & Literacy,Women's Development & Empowerment",
    "address":"AG1, Kothari College Compound, Opposite Tikuji Ni Wadi, Manpada",
    "lat":19.23661280457919,
    "lon":72.96797935899272
    },
    {
    "name":"Lifecare Foundations",
    "description":"Children,Differently Abled,Education & Literacy,Aged/Elderly,Health & Family Welfare",
    "address":"NAGESHWAR PARK,C-202/203,60 FEET ROAD,NEAR NAKODA HOSPITAL,DEVCHAND NAGAR, BHAYANDAR WEST, MAHARASHTRA",
    "lat":19.304130166466255, 
    "lon":72.85220658597642
    },
      {
        "name": "PREM SEVA MAHILA MANDAL",
        "description": "Children, Dalit Upliftment, Drinking Water, Education & Literacy, Environment & Forests, Health & Family Welfare, Legal Awareness & Aid, Micro Finance (SHGs), Minority Issues, Nutrition, Prisoner's Issues, Rural Development & Poverty Alleviation, Tribal Affairs, Vocational Training, Women's Development & Empowerment",
        "address": "MMU Arcade, Ammu Nagar, Syndicate, Kalyan (W) – 421301, Thane District, Maharashtra, India",
        "lat": 19.244232220944664,
        "lon": 73.14299595713845
      },
        {
        "name": "Ashwamedh Foundation",
        "description": "Children, Education & Literacy, Women's Development & Empowerment",
        "address": "C/o Govind Dodamani, A/B-401, Sindhu Garden CHS, Y.K. Nagar, Virar (W), Thane-401303, Maharashtra",
        "lat": 19.458441875005672, 
        "lon": 72.80264573564435
    
      },
      {
        "name": "Shree Gurudev Bahuddeshiya Samajik Sanstha",
        "description": "Various social development initiatives",
        "address": "103, Dhanalaxmi Apartment, Near Suhasini Mahila Sahakari Patsanstha, Taluka Jawhar, Dist. Palghar, Maharashtra-401603",
        "lat":18.70193992231473, 
        "lon": 74.9338112619688
     },
       {
        "name": "MAMTA WOMENS WELFARE EDUCATION SOCIETY",
        "description": "Agriculture, Animal Husbandry, Dairying & Fisheries, Art & Culture, Biotechnology, Children, Civic Issues, Dalit Upliftment, Differently Abled, Disaster Management, Drinking Water, Education & Literacy, Aged/Elderly, Environment & Forests, Food Processing, Health & Family Welfare, HIV/AIDS, Housing, Human Rights, Information & Communication Technology, Labour & Employment, Land Resources, Legal Awareness & Aid, Micro Finance (SHGs), Micro Small & Medium Enterprises, Minority Issues, New & Renewable Energy, Nutrition, Panchayati Raj, Prisoner's Issues, Right to Information & Advocacy, Tourism, Tribal Affairs, Urban Development & Poverty Alleviation, Vocational Training, Water Resources, Women's Development & Empowerment, Youth Affairs",
        "address": "8 D 25 SAGAR CHS, Sector 10, Koperkharane, Navi Mumbai, Maharashtra",
        "lat": 19.09474878297153,    
        "lon": 73.00133665713452   
      },
       {
        "name": "Lokseva Welfare Trust",
        "description": "Children, Education & Literacy, Food Processing, Health & Family Welfare, Information & Communication Technology, Vocational Training",
        "address": "C66/302, Sector 5, Shanti Nagar, Mira Road East, Thane-401107, Maharashtra",
        "lat":19.285525256958294,   
        "lon":72.86390106775684
      },
        {
        "name": "MAULI FOUNDATION",
        "description": "Children, Differently Abled, Education & Literacy, Women's Development & Empowerment, Any Other",
        "address": "Flat No-704, 7th Floor, A-Wing, Building No-5, Shree Gurudev Palace, Co-op HSG Society Ltd, Madtuya Nagar, Phase-1, Deepak Hospital Lane, Mira Road East, Thane-401107, Maharashtra",
        "lat":19.28727388212468,   
        "lon":72.86938806641199
      },
       {
        "name": "Mother Foundation Charitable Trust",
        "description": "Children, Civic Issues, Education & Literacy, Aged/Elderly, HIV/AIDS, Nutrition, Rural Development & Poverty Alleviation, Health & Family Welfare, Women's Development & Empowerment, Environment & Forests, Human Rights, Labour & Employment, Panchayati Raj, Right to Information & Advocacy, Tribal Affairs, Urban Development & Poverty Alleviation, Vocational Training, Any Other",
        "address": "302, 3rd Fl, Sai Jagannath Society, Plot-92, Sector-31A, Vashigaon, Navi Mumbai, Maharashtra",
        "lat": 19.077243976126873,
        "lon": 72.99912324178857
      },
        {
        "name": "MOTHER MEDICAL RESEARCH SOCIETY",
        "description": "Children, Civic Issues, Health & Family Welfare, Women's Development & Empowerment, HIV/AIDS, Human Rights, Any Other, Education & Literacy, Aged/Elderly, Differently Abled, Drinking Water, Environment & Forests, Information & Communication Technology, Labour & Employment, Legal Awareness & Aid, Nutrition, Panchayati Raj, Right to Information & Advocacy, Rural Development & Poverty Alleviation, Tribal Affairs, Urban Development & Poverty Alleviation, Vocational Training, Water Resources, Youth Affairs",
        "address": "302, 3rd Fl, Sai Jagannath Society, Plot-92, Sector-31A, Vashigaon, Vashi, Navi Mumbai, Maharashtra",
        "lat": 19.07752219784422, 
       "lon": 72.99922594407266 
      },
             {
        "name": "JANANI ASHISH CHARITABLE TRUST",
        "description": "Children",
        "address": "P/37, M.I.D.C Res. Zone, Dombivli East 421203, Maharashtra",
        "lat": 19.214825982428795,
        "lon":  73.1012507454605
      },
      {
        "name": "SMIT OLD AGE HOME AND CARE FOUNDATION",
        "description": "Agriculture, Animal Husbandry, Dairying & Fisheries, Art & Culture, Biotechnology, Children, Civic Issues, Dalit Upliftment, Differently Abled, Disaster Management, Drinking Water, Education & Literacy, Aged/Elderly, Environment & Forests, Food Processing, HIV/AIDS, Housing, Human Rights, Information & Communication Technology, Labour & Employment, Land Resources, Legal Awareness & Aid, Micro Finance (SHGs), Micro Small & Medium Enterprises, Minority Issues, New & Renewable Energy, Nutrition, Panchayati Raj, Right to Information & Advocacy, Rural Development & Poverty Alleviation, Science & Technology, Scientific & Industrial Research, Sports, Tourism, Vocational Training, Water Resources, Women's Development & Empowerment, Youth Affairs, Skill Development, Animal Welfare",
        "address": "109, Osiya Mataji Residency, Retibunder Road, Pipeline Road, Kalher, Bhiwandi Road, Thane West, Maharashtra",
           "lat": 19.247842013811916,   
        "lon": 73.00836408782939
      },
      {
        "name": "Indian Women & Children Foundation",
        "description": "Children, Education & Literacy, Environment & Forests, Health & Family Welfare, Information & Communication Technology, Micro Small & Medium Enterprises, Rural Development & Poverty Alleviation, Vocational Training, Women's Development & Empowerment",
        "address": "SHOP NO 5/6, Mansarovar Shopping Complex, Mansrovar, Bhiwandi, Maharashtra",
        "lat": 19.281806861581348, 
        "lon": 73.0650376245941
      },
       {
        "name": "Cancer Control Mission",
        "description": "Health & Family Welfare, Disaster Management, Education & Literacy, Food Processing, Children, Nutrition",
        "address": "002/35, Kinjal CHS, Sec.1, Shanti Nagar, Opp. Railway Station, Mira Road East, Mumbai 401107, Maharashtra",
           "lat": 19.273976174452564,     
           "lon": 72.8623848994665
      },
      {
        "name": "SOHAM FOUNDATION",
        "description": "Agriculture, Children, Education & Literacy, Health & Family Welfare, Micro Finance (SHGs), Women's Development & Empowerment",
        "address": "Sai Palace, Shop No 1, Basement, Opp. Century Hospital, Shahad, Dist. Thane, Maharashtra",
        "lat": 19.245767296117698, 
        "lon": 73.16490956877495
      },
      {
        "name": "CHILDREN OF THE WORLD INDIA TRUST",
        "description": "Children",
        "address": "VISHWABALAK KENDRA PLOT 9, Navi Mumbai, Maharashtra",
        "lat": 19.03764508573446,     
        "lon": 73.01352877121495
      },
       {
        "name": "HOLY SPIRIT FOUNDATION TRUST",
        "description": "Children, Differently Abled, Drinking Water, Education & Literacy, Aged/Elderly, Health & Family Welfare, Human Rights, Nutrition, Right to Information & Advocacy, Tourism, Urban Development & Poverty Alleviation, Vocational Training, Women's Development & Empowerment",
        "address": "LODHA, MIRA ROAD EAST, DIST THANE 401107, Maharashtra",
        "lat": 19.28918949713007,  
       "lon":72.85907486590202 
      },
      {
        "name": "Aasara",
        "description": "Children",
        "address": "B-24, Praful Nakhawa Chawl, Chendani, Koliwada, Thane East, Maharashtra",
        "lat": 19.187206921097093, 
        "lon": 72.98047470426336
      },
         {
        "name": "Pasaydan Balvikas Foundation",
        "description": "Children, Women's Development & Empowerment",
        "address": "Pasaydan Balvikas Foundation, Care of Niharika Balbhavan, 605 Waveghar, Khadvali West, Tal Kalyan, Dist Thane 421605, Maharashtra",
           "lat": 19.359431192921488,
        "lon": 73.22278418968683
      },
           {
        "name": "PALMS CARE FOUNDATION",
        "description": "Children",
        "address": "Millennium Park 401-B Wing, Plot No. 25, Opp Dharave Petrol Pump, Nerul-East, Navi Mumbai 400706, Maharashtra",
        "lat": 19.023539310806157, 
        "lon":73.02135245224173
      },
       {
        "name": "Cdrome Education Society",
        "description": "Animal Husbandry, Dairying & Fisheries, Education & Literacy, Agriculture, Art & Culture, Biotechnology, Children, Civic Issues, Dalit Upliftment, Differently Abled, Disaster Management, Drinking Water, Education & Literacy, Aged/Elderly, Environment & Forests, Food Processing, Health & Family Welfare, HIV/AIDS, Housing, Human Rights, Information & Communication Technology, Labour & Employment, Land Resources, Legal Awareness & Aid, Micro Small & Medium Enterprises, New & Renewable Energy, Nutrition, Prisoner's Issues, Rural Development & Poverty Alleviation, Science & Technology, Scientific & Industrial Research, Tribal Affairs, Vocational Training, Water Resources, Minority Issues, Panchayati Raj, Right to Information & Advocacy, Sports, Tourism, Urban Development & Poverty Alleviation",
        "address": "101, Pansi House, Nr. Prayag Bldg. No. 4, Lok Dhara Phase I, Kalyan (East), Dist. Thane 421306, Maharashtra",
         "lat": 19.227568511026416, 
        "lon": 73.13009242830164
      },
      {
        "name": "HUMAN RIGHTS COUNCIL OF INDIA",
        "description": "Agriculture, Animal Husbandry, Dairying & Fisheries, Art & Culture, Biotechnology, Children, Civic Issues, Dalit Upliftment, Disaster Management, Education & Literacy, Aged/Elderly, Environment & Forests, Food Processing, Health & Family Welfare, HIV/AIDS, Housing, Human Rights, Information & Communication Technology, Labour & Employment, Land Resources, Legal Awareness & Aid, Micro Finance (SHGs), Micro Small & Medium Enterprises, New & Renewable Energy, Right to Information & Advocacy, Rural Development & Poverty Alleviation, Science & Technology, Scientific & Industrial Research, Tourism, Tribal Affairs, Urban Development & Poverty Alleviation, Vocational Training, Water Resources, Women's Development & Empowerment, Youth Affairs, Any Other, Differently Abled, Drinking Water, Minority Issues, Sports",
        "address": "HRC Bhavan, Western Express Highway, Near Bharat Petrol Pump, Opposite Mira Goan Road, Kashimira, Mira Road East, Mira Bhayandar, Maharashtra 401107",
         "lat": 19.271457204186405, 
        "lon": 72.88077792865613
      },
      {
        "name": "JAMIAT AHLE HADEES TRUST BHIWANDI",
        "description": "Art & Culture, Children, Civic Issues, Differently Abled, Disaster Management, Drinking Water, Education & Literacy, Aged/Elderly, Food Processing, Health & Family Welfare, Human Rights, Labour & Employment, Micro Finance (SHGs), Minority Issues, Nutrition, Rural Development & Poverty Alleviation, Urban Development & Poverty Alleviation, Water Resources, Women's Development & Empowerment, Youth Affairs",
        "address": "FLAT NO.102, HOUSE NO. 549, BEHIND TELGU SCHOOL, NEAR RAIS HIGH SCHOOL, THANE ROAD, BHIWANDI, MAHARASHTRA",
        "lat": 19.29480711996478, 
       "lon":  73.05608952721187 
      },
      {
        "name": "Jeevandeep Shaikshanik Sanstha Poi",
        "description": "Education & Literacy, Sports, Vocational Training, Women's Development & Empowerment, Any Other, Youth Affairs, Children, Skill Development",
        "address": "AT POI POST VAHOLI TAL. KALYAN DIST. THANE MAHARASHTRA 421103",
        "lat": 19.253199445627697,
         "lon": 73.16215642593833
      },
              {
        "name": "Life Saver Foundation",
        "description": "Children, Education & Literacy, Health & Family Welfare, Tribal Affairs",
        "address": "Flat no. 1, Bougan villa, Orchids CHS Ltd., Majiwada, Thane (West), Maharashtra 400601",
        "lat": 19.191454744412145, 
       "lon":  72.9724508884189   },
          {
        "name": "PEHCHAAN LIVE FOUNDATION",
        "description": "Children, Education & Literacy, Health & Family Welfare, Sports",
        "address": "502, SHREE SARSWATI CHS, PLOT NO 91, SECTOR 1, KOPERKHAIRANE, NAVI MUMBAI, MAHARASHTRA",
        "lat": 19.11235199443662,   
        "lon": 73.00590686269844   
     },
        {
        "name": "Sukha Swapna Pratishthan",
        "description": "Art & Culture, Children, Food Processing, Human Rights",
        "address": "Mahale Chawl, Opp. Shivsena Shakha, Kokanipada, Pokharan Road No. 2, Thane (W), Maharashtra, Pin 400610",
        "lat": 19.222010073339263, 
        "lon":72.95912821059206
      },
         {
        "name": "Mahila Utkarsh Mandal",
        "description": "Art & Culture, Children, Food Processing, Health & Family Welfare, HIV/AIDS, Nutrition, Vocational Training, Women's Development & Empowerment",
        "address": "106, Waja Mohalla, Bobre Compound, Thana Road, Bhiwandi, Maharashtra",
        "lat": 19.24435243927827,
        "lon": 73.12520321615604
      },
          {
        "name": "PARASH DNYAN SHIKSHAN PRASARAK MANDAL",
        "description": "Children, Education & Literacy, Aged/Elderly, Labour & Employment, Rural Development & Poverty Alleviation, Skill Development, Differently Abled, Environment & Forests, Food Processing, Nutrition, Tribal Affairs, Urban Development & Poverty Alleviation, Women's Development & Empowerment",
        "address": "9C-403, NILKAMAL C/D WIN CHSL, Thane, Maharashtra, 401104",
        "lat": 19.265294202059458, 
       "lon":72.89567246877546 
      },
        {
        "name": "Navajyothi Trust",
        "description": "Children",
        "address": "D.S.H.J Convent, Purandhare Colony, Syndicate, Kalyan West, Thane-421301, Maharashtra",
        "lat": 19.242745400036647,    
       "lon": 73.1447625436476
      },
      {
        "name": "THE ETERNAL HOPE CHARITY MISSION",
        "description": "Children, Education & Literacy, Health & Family Welfare",
        "address": "Bethany Children’s Home, Plot No. 4-A, Sector 5, Nerul East, Navi Mumbai 400706, Maharashtra",
        "lat": 19.039631106949297,
       "lon": 73.02601093015122     },
              {
        "name": "AASHRAY SAMAJIK SANSKRUTIK SHAISHANIK TRUST",
        "description": "Art & Culture, Children, Dalit Upliftment, Education & Literacy, Human Rights, Any Other",
        "address": "5, Rajaram Apartment, Bunderwadi, Navghar Road, Near Shani Mandir, Bhayander (E), Dist Thane 401105, Maharashtra",
        "lat": 19.312725158910403,
       "lon": 72.85398665292165 
      },
      {
        "name": "SHREE RAJENDRA HONEYCOMB CHARITABLE TRUST",
        "description": "Children, Education & Literacy, Health & Family Welfare",
        "address": "D-111 to 114, Ostwal Tower No.1, Kharigoan, B.P. Cross Road, Bhayander East, Maharashtra",
        "lat":19.305762871452153,  
     "lon": 72.85649280503077    
    },
      {
        "name": "PARANUBHUTI FOUNDATION",
        "description": "Agriculture, Children, Education & Literacy, Aged/Elderly, Environment & Forests, Health & Family Welfare, Rural Development & Poverty Alleviation, Tribal Affairs, Vocational Training, Water Resources, Women's Development & Empowerment, Art & Culture, Differently Abled, Disaster Management, Drinking Water, HIV/AIDS, Youth Affairs, Skill Development, Animal Welfare",
        "address": "EC70, A002, Mangal Madhuli CHSL, Evershine City, Vasai East, Maharashtra",
        "lat": 19.40736658568437, 
    "lon": 72.83841330452384  },
      {
        "name": "SATKARM ASHRAM",
        "description": "Children",
        "address": "At-Yadav Nagar, Sonivali Eranjad Road, Near Badlapur River, Post-Eranjad, Badlapur (W), Tal-Ambernath, Dist-Thane, Maharashtra-421503",
        "lat": 19.16640869642447,
       "lon":  73.25672922222712   
    },
     {
    "name":"ROSTRUM INDIA SOCIAL ORGANIZATION",
    "description":"We conduct Educational Projects, Health Awareness Programs, Self Employment Programs, Women Empowerment Programs, Medical Camps, Rehabilitation Projects (for the Disabled), Child Labor Projects, and Environmental Awareness Programs for slums and rural as well urban areas.",
    "address":"Rostrum India Social Organization (RISO) Office No 1, 1st Floor, Chandrashila Complex, Above Honda Showroom, Opp Ashirwad Mangal Karyalaya, NDA Road, Shivane, Pune",
    "lat":18.4648, 
    "lon":73.7756 
    },
    {
    "name":"BAIF INSTITUTE FOR SUSTAINABLE LIVELIHOODS AND DEVELOPMENT",
    "description":"Over 50 lakh families availing Animal Husbandry services in 100,000 villages. 20 lakh elite cows and buffaloes contributing Rs. 7500 crores through milk per annum. Watershed development covering 4 lakh ha and 2.2 lakh families enhanced the crop yields by Rs. 700 crores per annum. Wadi programme benefitting 2 lakh families, enhanced the production by Rs. 570 crores per annum. 2600 SHGs covering 27,500 women are actively engaged in socio-economic development",
    "address":"BAIF Bhavan, Dr. Manibhai Desai NagarWarje, Pune 411058, India",
    "lat":18.486303, 
    "lon":73.796585
    },
    {
    "name":"GAJBA RESEARCH AND TRAINING INSTITUTE PRIVATE LIMITED",
    "description":"We are successfully running Skill development center Corporate Social Responsibility Center Entrepreneur Incubation Center Research and Training Activities",
    "address":"GAJBA PLOT NO 07 VIDYADEEP SOCIETY NEAR POST OFFICE DHANAKAWADI PUNE 411043",
    "lat":18.461620, 
    "lon":73.850533
    },
    {
    "name":"YASHASWI ACADEMY FOR SKILLS",
    "description":"implementation of Govt Sponsored Skill Training and Education Projects like PMKVY, NULM, RMSA, NER along with corporate sponsored and fee based programs",
    "address":"CTS NO. 95A/1,AMIT COURT, FLAT NO. 7 BHAMBURDAS-NAGAR , PUNE 411005",
    "lat":18.516726, 
    "lon":73.856255
    },
    {
    "name":"Vishwa Shriram Sena Samajik Sangathan",
    "description":"Company has undertaken tree plantation program in Pune wherein company has implanted till date approx Fifty Thousand Working of the Company is expanded in Ten states of the country The Company has undertaken Cashless Campaign in the Pimpri Budruk and led the village to become the First Village in District to go Cashless Company has built approx Eight Animal Shelters in Maharashtra and Bihar State Water conversation activity by developing reservoirs Anti Addiction Campaign Swachh Bharat Campaign",
    "address":"Ambika bhavan, gut no.1323/1,Nayar Colony, Sainath park, Sane Chowk, More Vasti, Chikhali",
    "lat":20.349098, 
    "lon":76.265289
    },
    {
    "name":"Syngenta Foundation India",
    "description":"The model is active across Andhra Pradesh, Bihar, Jharkhand, Madhya Pradesh, Maharashtra, Odisha and West Bengal. As of August 2018 over 580 AEs are serving approximately 75000 farmers. On an average an AE earns up to USD 2000 after business maturity. The programme has been successful in improving the productivity for both paddy and vegetable production and increasing income for farmers associated with an AE than for non-associated farmers.",
    "address":"Amar Paradigm, SUrvey No.110/11/3, Baner Road, Pune 411045",
    "lat":18.5662, 
    "lon":73.7719
    },
    {
    "name":"INDO-SWISS CENTRE OF EXCELLENCE",
    "description":"Working with Syngenta Foundation India",
    "address":"3RD FLOOR, VASCON WEIKFIELD CHAMBERS, NAGAR ROAD, BEHIND NOVOTEL HOTEL,SATPAL MALHOTRA MARG, PUNE, MAHARASHTRA",
    "lat": 18.566526, 
    "lon":73.912239
    },
    {
    "name":"INTERNATIONAL TENNIS VOLLEYBALL FEDERATION",
    "description":"As per Memorundum of ATVF has made significant strides in empowering communities through its innovative approach to sports, health, and education. In the realm of sports, we have successfully engaged thousands of youth across diverse regions, promoting physical fitness and life skills through grassroots programs and community events. Our health initiatives have improved community well-being by providing essential healthcare services and awareness campaigns, tackling issues like malnutrssociation",
    "address":"ROW HOUSE NO 20 ASHOK PARK NEAR SUN CITY WADGAON BUDUK PUNE",
    "lat":18.466921, 
    "lon":73.826561
    },
    {
    "name":"Shashwat Eco Solution Foundation",
    "description":"Water Digest and UNESCO Award 2016 for Water Education, Water Digest and UNESCO Award 2015 for Water Harvesting, Best NGO for Waste Segregation from Bruhan Mumbai Municipal Corporation on 5th June 2017, Vasundhara Award 1st prize in 2015 for Clean and Green Mahabaleshwar project, Swachh Vidyalaya Puraskar for toilet with Green rating in 2017 to the Devghar ZP School, Nelda Awards in 2017 for Eco festivals and women empowerment",
    "address":"D2/901, Ovalnest Society, Sr No 77, Warje, Pune 411058",
    "lat":18.486303, 
    "lon":73.796585
    },
    {
    "name":"VIKASANVESH FOUNDATION",
    "description":"Major Activities- Research on niglected issues related to rural development",
    "address":"601, 6TH FLOOR, GALORE TECH IT PARK, LMD CHOWK, BAVDHAN KHURD, PUNE",
    "lat":18.53527778, 
    "lon":73.78277778
    },
    {
    "name":"SAI SOCIAL MICROFINANCE FOUNDATION",
    "description":"finance to needy people ,who needs working capital for smoothly running their small business. We have 3100 partners (approx.) with a good track record , but due to shortage of funds we can not provide sufficient fund in time to our partners. Our aim to upgrade 5000 to 7500 poor family in every year.",
    "address":"SN62 65, PN383, MAHATMA SOCIETY , KOTHRUD , PUNE -411029",
    "lat":18.49386493637837, 
    "lon":73.79871809098846
    },
    {
    "name":"Shri Parnerkar Institute for Research Innovation and Technology Foundation",
    "description":"We conduct Entrepreneurship Development Programs for last 1 year volunteerily called Start-O-Scope in various places. Successfully mentored 20 startups so far. Our Intuition Research programs are taking shape and receiving invitations from abroad to deliver lectures. Started our first Rural Incubation Center to promote Research, Innovation and Technology at Parner, Dirst. Ahmednagar of Maharashtra.",
    "address":"SR. NO. 257/2/5, HOUSE 1043,, BANER GREEN PARK",
    "lat":18.55124078208474, 
    "lon":73.80413938207458
    },
    {
    "name":"Dikshan Movement Foundation ",
    "description":"Undertaken Digital-Learning Implementation across various schools in Maharashtra state - Currently work order under process with Forest Department for Research related Projects for Forests and BDPs in Maharashtra",
    "address":"1, Ganesh Chambers, Urmila Soc, Dhankawadi, Pune",
    "lat":18.467527463898723, 
    "lon": 73.85243525645215
    },
    {
    "name":"SAAD MANUSAKICHI FOUNDATION",
    "description":"10 Zilla Parishad Primary Schools, in Kothari cluster of Chandrapur Following facilities were provided LED, P. A. System, water cooler Sports Material Volley ball, Carrom, Badmintan Set, Cricket Kit Health, hygene, cleanliness, Sanitary Equipment Computer",
    "address":"FLAT NO 201, 495,Narayan Peth, Pune, Maharashtra, India, 411030",
    "lat":18.51475301273738, 
    "lon":73.8484136323639
    },
    {
    "name":"AIC-ADT BARAMATI FOUNDATION",
    "description":"AIC-ADT BARAMATI FOUNDATION is sector agnostic with regards to incubation of entrepreneurs.",
    "address":"Shardanagar, (Malegaon Col.) Post Box No.- 35, Tal. Baramati. Dist. Pune-413 115 Maharashtra, India",
    "lat":18.184056193943658, 
    "lon":74.58733620771703
    },
    {
    "name":"Bigbuddie Foundation",
    "description":"Provide guidance to children in schools for science-related exhibitions, projects. Print and distribute science-related and astronomy-related books for the awareness of science and technology and encourage them.",
    "address":"BIGBUDDIE FOUNDATION 104, Neha Corner , Gulab Nagar BUS STOP,, DHANKAWADI, PUNE, Pune, Maharashtra, India, 411043",
    "lat":18.466330936671866, 
    "lon":73.85324286133981
    },
    {
    "name":"Vaghmi Foundation",
    "description":"Achieved police award for best work on Road Safety Reduced 90 percent fatalities with the structural changes",
    "address":"FLAT NO 5, CITY CORNER, NEAR PRAGATI GARDEN, VIDYANAGAR, PUNE- 411032",
    "lat":18.580922804854268, 
    "lon":73.89355471186889
    },
    {
    "name":"SPARTBN SOCIAL WORKERS FEDERATION OF INDIA",
    "description":"CONDUCTING SOCIAL ENTREPRENEURSHIP DEVELOPMENT PROGRAM IN ENTIRE MAHARASHTRA AND GOA NGO CAPACITY BUILDING, HELPING RURAL PEOPLE",
    "address":"B 403, Malhar CHS Ltd., Katraj-Ambegaon Road, Ambegaon, Pune-411046",
    "lat":18.449640511438687, 
    "lon":73.84282549837434
    },
    {
    "name":"BHUMATA FOUNDATION",
    "description":"The main aim of the foundation is fight for womens rights and give justice to them and for gender equality. To promote and perform various activities in the field of women empowerment education health medical and wellness. To provide opportunities to develop skills and talents of children and women with the aim of generating a sustainable income and be independent to march with the time and age. To help the women in all possible ways in order to make them self-reliant and self supportive.",
    "address":"C/O Desai Trupti Prashant S. No. 29/3/1/4/1 , A -308 GURUKRUPA BUILDING SATARA ROAD DHANKAWADI PUNE",
    "lat":18.477428096607582, 
    "lon":73.83930594024615
    },
    {
    "name":"JOYOFLEARNING FOUNDATION",
    "description":"Agriculture, Art ing, Human Rights, Information",
    "address":"JOYOFLEARNING FOUNDATION FL-B/503,KASTURI SHELTERS SN 134, HISSA, 1,2 MUNDHWA R HADAPSAR, PUNE, Pune, Maharashtra, India, 411028",
    "lat":18.5232610162485, 
    "lon":73.9303205100154
    },
    {
    "name":"eco circular india foundation",
    "description":"Pune Municipal Corporation for Solid waste management and Vocational training for segregation and help in Zero waste Phaltan. Child Nutrition seminar in Anganwadis at Patan District in Satara. Helping Girls get scholarship from poor background. many lectures in colleges for disaster management. awareness among farmers regarding agricultural and animal husbandry issues.",
    "address":"SAMARTH TERRACE, FLAT NO. 303, SR. NO. 133, 134/1/1, 134 2/4/5/6, SUSGAON",
    "lat":18.552648365619916, 
    "lon":73.74872825234408
    },
    {
    "name":"JEEVAN HELP COUNCIL",
    "description":"PROVIDED SELF EMPLOYMENT TRAINING TO WOMEN, AWARNESS TRAINING, EDUCATION AWARENESS TRAINING TO WOMEN, PROVIDED FOOD FACILITY TO POOR CHILDREN",
    "address":"C/O SHRI BALU TUKARAM KADAM HOUSE NO-1008,RAHU PIMPALGAON, DAUND ,Pune,Maharashtra,India,412214",
    "lat":18.594630503516477, 
    "lon":74.28286064055646
    },
    {
    "name":"DIPPS NGO DEVELOPMENT COUNCIL",
    "description":"NGO, entrepreneur and startup development, agro Industries development. Handicraft and culture conservation and development. Education and short term courses. Government policies and scheme training and Management for other NGOs in India",
    "address":"NIRMAL TOWNSHIP KALE PADAL BUNGLOW A/8 S 41, HADAPSAR, PUNE, Pune, Maharashtra, India, 411028",
    "lat":18.488802957823154, 
    "lon":73.93696138144212
    },
    {
    "name":"OSGAN PEACE FOUNDATION",
    "description":"Village adoption and building sustainable rural Micro economies. Ensure the Villagers are self dependent and thrive on their own.Will include provision of Safe water, Roads, Education,Sewerage, Water recycling, waste disposal, improved methods of Cultivation,Child care,Nutrition and Security People to people cultural exchange programs for better understanding through road trips between countries",
    "address":"FL NO-A-003, S NO-29/1/4 SHAURYA HOMES MUNJABAWASTI, PUNE, MAHARASHTRA",
    "lat":18.584427353920994, 
    "lon":73.89416181001675
    },
    {
    "name":"TREE-DEV FOUNDATION",
    "description":"Our efforts on Mass Immunization Campaign programme, TIKA APP has been successful without any publicity and external funding. More than 5000 downloads. Distributed more than 1000 masks, soaps, sanitizers and sanitary napkins to adolescent girls and other needy people in Pune, Jalandhar and Jabalpur during COVID19 lockdown.",
    "address":"44/58, NAV SAHAYADRI SOCIETY, KARVENAGAR, PUNE, Maharashtra, INDIA411052",
    "lat":18.494999248052824, 
    "lon":73.8293151489019
    },
    {
    "name":"Carl Woese Universal Biology Private Limited",
    "description":"RESEARCH AND DEVELOPMENT",
    "address":"A3, A62, Niranjan CHS, Sai Chowk, Pashan, Pune",
    "lat":18.543416607963906, 
    "lon":73.78410981530031
    },
    {
    "name":"AVANI HELPO FOUNDATION",
    "description":"Agriculture, Art",
    "address":"H.NO.1275, BHEKRAINAGAR , HADAPSAR , TAL -HAVELI , DIS.- PUNE , 412308",
    "lat":18.482319927361203, 
    "lon":73.95213955223971
    },
    {
    "name":"ASHA Foundation for Sustainability",
    "description":"Agriculture,Animal Husbandry, Dairying & Fisheries",
    "address":"S.NO.171, FLAT NO.102, 1ST FLOOR, GOKUL CREST CO.OP. HOUSING SOCIETY LTD., LOHEGAON,Pune, Maharashtra, India, 411014",
    "lat":18.561776268053844, 
    "lon":73.90795149652445
    },
    {
    "name":"SHIVBUDDHA VISHWASHANTI YOGA And NATUROPATHY VIDYAPEETH FOUNDATION",
    "description":"To work for the social upliftment and development of underprivileged societies of India with a special focus on rural areas, women and children, development of model villages etc. through various centers, schools, universities and partnership with Government PSUs, Government institutions. To help underprivileged section of the society with programs for promoting health hygiene such as providing food, clean water, medical assistance, sanitation facilities, sexually transmitted diseases.societys",
    "address":"SN-18/1 PL 20/22 DIGHIVIJAY MAGAR, PUNE",
    "lat":18.518814886171093, 
    "lon": 73.92647439994633
    },
    {
    "name":"WECAN ENVIRONMENT WELFARE ASSOCIATION",
    "description":"Agriculture,Environment & Forests",
    "address":"JAI PRAKASH APT SN 54/6 WADGAON BK NR TOL NAKA PUNE PUNE",
    "lat":18.460303633025262, 
    "lon":73.82306668010749
    },
    {
    "name":"WORLDWIDE HUMAN RIGHTS AMBASSADORS FOUNDATION",
    "description":"To work for the social upliftment and development of underprivileged societies of India with a special focus on rural areas, women and children, development of model villages etc. through various centers, schools, universities and partnership with Government PSUs, Government institutions. To help underprivileged section of the society with programs for promoting health hygiene such as providing food, clean water, medical assistance, sanitation facilities, sexually transmitted diseases and to org",
    "address":"SN-18/1 PL 20/22 DIGHIVIJAY MAGAR, PUNE",
    "lat":18.47966901238747, 
    "lon":73.88383145279084
    },
    {
    "name":"Resourceful Education Foundation",
    "description":"children education awareness ngo",
    "address":"Ganesh Nagar, Venu Nagar Cotes, Thergaon, Pimpri-Chinchwad, Maharashtra 411033",
    "lat":18.607925118555713, 
    "lon":73.76481114501509
    },
    {
    "name":"GOODWILL EMPIRE FOUNDATION",
    "description":"Promoting educational and vocational skill upgrade, to ensure environmental sustainability, research and operations for national growth to carry out social welfare activities including in areas of education, art, science etc.",
    "address":"302, Gulmohar Co-Operative Housing Soc. Ltd.,Altino Colony, Behind Harneshwar Hospital,Talegaon Dabhade, Taluka- Maval,District- Pune -410507.",
    "lat":18.72625104386012, 
    "lon":73.67381298118363
    },
    {
    "name":"AAPKA DOCTOR FOUNDATION",
    "description":"DONATION, GRANTS IN AID, CONTRIBUTIONS FROM GENERAL PUBLIC",
    "address":"S.NO 171, FLAT NO 306, BLDG C, GREEN COUNTY,PHASE II,FURSUNGI,",
    "lat":18.479235234268067, 
    "lon":73.9580482483749
    },
    {
    "name":"DEVRANI SOCIAL WELFARE FOUNDATION",
    "description":"To open, found, establish, promote, setup, run, maintain, assist, support and aid or help in setting up and maintaining and running hospitals, charitable dispensaries, maternity home, child welfare centers, convalescent homes, sanitarium and other similar institutions or centers for rendering or proving medical relief and aid to the suffering humanity or for research centers and institutions for promotion of research and education for medical science including surgery. To establish support.",
    "address":"OFFICE NO. 423, 4TH FLOOR, STERLING, CENTER, MG ROAD, CAMP,, PUNE",
    "lat":18.518272275814425, 
    "lon":73.87928948303157
    },
    {
    "name":"DEEDS FOR NEEDS FOUNDATION",
    "description":"To establish, maintain or grant aid for the establishments or maintenance of wells, tube wells, tank water reservoirs, trees and constructions of and repairs to paths, roads, bridges, for the use of public.",
    "address":"Row No. C/4, Clover Highlands, Kondhwa, SN, 25/1 to 4, NIBM Road, Pune – 411048.",
    "lat":18.473377794528936, 
    "lon":73.89924229652259
    },
    {
    "name":"SHRI DATTA SPIRITUAL EDUCATION AND CHARITABLE FOUNDATION",
    "description":"To work towards stopping all forms of gender-based violence and reducing gender inequality by helping children with education, mentorship, life-skills, vocational skills, sports, arts, behavioural skills, awareness about basic constitutional rights and provide camps for legal awareness of common legal rights available under the Indian Legal System. To help and collaborate in establishing and running medical hospital centres, old age homes, Ashrams, rehabilitation, institutions for the destitute",
    "address":"SHINDE VILLA, FLAT NO 201, SURVEY NO, 41/B, JADHAV NAGAR, VADGAV BUDRUK,",
    "lat":18.468280350761674, 
    "lon":73.82733641001435
    },
    {
    "name":"Bithelp Foundation",
    "description":"We are online crowd funding platform. We only collect donations for NGOs. We have members for donation who donate min. 100 Rs amount monthly. Donors choose cause for donation as per their wish.",
    "address":"BITHELP FOUNDATION FLNO-E, 1204, WOODS VILLE, PHASE-2, JADHAVWADI, PUNE, Pune, Maharashtra, India, 412105",
    "lat":18.671881086404504, 
    "lon":73.8316282946745
    },
    {
    "name":"AAI BABA MEDICAL FOUNDATION",
    "description":"To work towards stopping all forms of gender-based violence and reducing gender inequality by helping children with education, mentorship, life-skills, vocational skills, sports, arts, behavioural skills, awareness about basic constitutional rights and provide camps for legal awareness of common legal rights available under the Indian Legal System. To help and collaborate in establishing and running medical hospital centres, old age homes, Ashrams, rehabilitation, institutions for the destitute,",
    "address":"FLAT NO 203, SRINATH VIHAR SR NO., 215/188/1 GANGA NAGAR PHURSUNGI,",
    "lat":18.4924863271693, 
    "lon":73.95874886703628
    },
    {
    "name":"STYKAN SUPPORT FOUNDATION",
    "description":"To work towards stopping all forms of gender-based violence and reducing gender inequality by helping children with education, mentorship, life-skills, vocational skills, sports, arts, behavioural skills, awareness about basic constitutional rights and provide camps for legal awareness of common legal rights available under the Indian Legal System. To help and collaborate in establishing and running medical hospital centres, old age homes, Ashrams, rehabilitation, institutions for the destitute,",
    "address":"SNO 57 AZADNAGAR HADAPSAR NR NAREN HILLS, WANAWADI,",
    "lat":18.48377151479249, 
    "lon":73.90787578303087
    },
    {
    "name":"Padmagandha Surabhi Foundation",
    "description":"We have been able to do a good amount of work in Goshala, cultural-and-educational tourism so far.",
    "address":"F. No. 17, 5th Floor, E5 Bldg., Giridhar Angan Society, Near Mai Mangeshkar Hospital, Warje",
    "lat":18.485888237144735, 
    "lon": 73.7996547118669
    },
    {
    "name":"New Unique Foundation",
    "description":"Our achievement is that during the Corona period last year, Hon. Shri Rajendra Patil Yadrawkar Saheb Minister of State for Health and at Kem Hospital and St. George Hospital, through our CSR Fund of SBI Foundation, our initiative made available the Covid Symtoms Checking self kiosk machine.",
    "address":"305,DHARAMSHI SIGNATURE SAIBABA NAGAR, KONDHWA KHURD, PUNE411048",
    "lat":18.46818600345315, 
    "lon":73.8835079676865
    },
    {
    "name":"NATURE GARAGE FOUNDATION",
    "description":"NATURE GARAGE FOUNDATION is incorporated on dated 09/09/2021. FY 2021-2022 is our 1st Financial year and we did not receive any fund from any state, centre and overseas organization.",
    "address":"S.No-130,Crossroads Bld, Office No-317 Bhumkar Chowk, Wakad, Pune, Maharashtra-411057",
    "lat":18.60549528136749, 
    "lon":73.75277325419725
    },
    {
    "name":"EYRIE PEOPLE'S FOUNDATION",
    "description":"To carry on the activity of promoting, imparting, launching, creating, designing, adopting traditional, formal and creative means of imparting, inculcating ,disseminating, Diversified Skills, education forms of all types of steams and personality development techniques by providing seminars, web-seminars, counselling, e-courses of all education types, online classes, teaching to school. Providing qualitative, competitive, vocational education with contemporary edge with digital era.",
    "address":"C-7, TARAI RESIDENCY, KAWADE, COMPLEX, B T KAWADE ROAD, HADAPSAR, PUNE, 411028.",
    "lat":18.518224189242513, 
    "lon":73.90647163885147
    },
    {
    "name":"SPPU Research Park Foundation",
    "description":"SPPU Research Park Foundation has ranked in the Expert Category by Maharashtra State Innovation Society as one of the best emerging startup Incubator in Maharashtra",
    "address":"Opposite Health Centre, Savitribai Phule Pune University Campus Ganeshkhind Pune Pune MH 411007",
    "lat":18.549170005137476, 
    "lon":73.82749448426732
    },
    {
    "name":"Gram Swavlamban Foundation",
    "description":"Informal Education. Work with Farmer on Soil",
    "address":"D-2102, LALIT,NANDED CITY PUNE 411021",
    "lat":18.459181573062434,  
    "lon":73.79209086768637
    },
    {
    "name":"EHSAAS CHARITABLE FOUNDATION",
    "description":"Ehsass Foundation has contributed for the treatments of cancer patients.",
    "address":"4th Floor, Vedwanti Apartment,Near Bhawkar Lane, Shivaji Nagar, Pune -411005.",
    "lat":18.53258029453715,  
    "lon":73.84634420905006
    },
    {
    "name":"TWJ Foundation",
    "description":"1. Marketing stalls for SHGs 2. Remedial classes for slow learning students 3. Devrai plantation for forest restoration 4. Various skills development 5. Awareness of government schemes 6. Mental Health Services 7. Rural Development 8. Cultural Programs 9. Healthcare services 10. Agriculture guidance 11. Mixed and multilayer farming 12. Arts and cultural heritage 13. Water conservation and management 14. Awareness programs 15. Workshops 16. Exhibitions 17. Competitions 18. Sports",
    "address":"S. No. 54/1A, CTS No.291, Krishnai Plaza, office No. 403-404, Near Jijamata Bank, Karvenagar, Pune",
    "lat":18.488111660146966,  
    "lon":73.81375313603252
    },
    {
    "name": "TRULY YOURS WELFARE SOCIETY",	
    "description":"Animal Husbandry, Dairying & Fisheries,Aged/Elderly,Agriculture,Art & Culture,Biotechnology,Children,Civic Issues,Differently Abled,Dalit Upliftment,Drinking Water,Education & Literacy,Environment & Forests,Food Processing,Health & Family Welfare,HIV/AIDS,Housing,Human Rights,Information & Communication Technology,Legal Awareness & Aid,Labour & Employment,Land Resources,Micro Finance (SHGs),Minority Issues,Micro Small & Medium Enterprises,Nutrition,Vocational Training",
    "address":"201, 2nd Floor, Shreeraj CHS, Above Swaminarayan Temple, MG Road Kandivali West Mumbai",
    "lat":22.496757539770456, 
    "lon":77.0494942533504
    },
    {
    "name":"SAAD Foundation",
    "description":"Children,Differently Abled",
    "address":"SAAD Foundation Office, 62 E, Ground Floor, Kamgar Nagar, Kurla (East), Chembur, Mumbai 400024",
    "lat":19.062851394228733,
    "lon":72.88818453790871
    },
    {
    "name":"Punarvas Education Society",
    "description":"Children,Differently Abled,Education & Literacy",
    "address":"Punarvas Education Society Plot No. 312, Opp. Piramal Nagar, S.V. Road, Goregaon (W), Mumbai -104, Maharashtra, India",
    "lat":19.190345093670928, 
    "lon": 72.84643532541254
    },
    {
    "name":"Uttar Bharatiya vishwa mahasangh",
    "description":"Aged/Elderly,Art & Culture,Children,Civic Issues,Differently Abled,Education & Literacy,Environment & Forests,Health & Family Welfare,Human Rights,Legal Awareness & Aid,Labour & Employment,Minority Issues,Micro Small & Medium Enterprises,Nutrition,Rural Development & Poverty Alleviation,Sports,Tourism,Urban Development & Poverty Alleviation,Vocational Training,Women's Development & Empowerment,Youth Affairs",
    "address":"Besant Rd, Bhim Wada, Santacruz (West), Mumbai, Maharashtra 400054",
    "lat":19.095338067188095, 
    "lon":72.838247502974
    },
    {
    "name":"BHARTIYA VIKAS SANSTHAAN",
    "description":"Aged/Elderly,Art & Culture,Children,Civic Issues,Differently Abled,Education & Literacy,Environment & Forests,Health & Family Welfare,Human Rights,Legal Awareness & Aid,Labour & Employment,Minority Issues,Micro Small & Medium Enterprises,Nutrition,Prisoner's Issues,Right to Information & Advocacy,Rural Development & Poverty Alleviation,Sports,Tourism,Urban Development & Poverty Alleviation,Vocational Training,Women's Development & Empowerment,Youth Affairs",
    "address":"BHARTIYA VIKAS SANSTHAN 1 GHANSHYAM DUBE TOWER M.G. ROAD, BORIVALI (EAST) MUMBAI 400 066",
    "lat":19.231519673572734, 
    "lon":72.85784396674899
    },
    {
    "name":"Rise India Foundation",
    "description":"Children,Disaster Management,Education & Literacy,Health & Family Welfare,Legal Awareness & Aid,Rural Development & Poverty Alleviation,Urban Development & Poverty Alleviation,Women's Development & Empowerment,Youth Affairs,Skill Development",
    "address":"706,Sairaj Building-2, Barretto Compound, DMonte Lane, Orlem,Malad West",
    "lat":19.193817595860132, 
    "lon":72.83672086489712
    },
    {
    "name":"Vikas Sahyog Pratishthan",
    "description":"Agriculture,Animal Husbandry, Dairying & Fisheries,Children,Disaster Management,Drinking Water,Education & Literacy,Environment & Forests,Micro Finance (SHGs),Micro Small & Medium Enterprises,Nutrition,Rural Development & Poverty Alleviation,Tribal Affairs,Vocational Training,Water Resources,Women's Development & Empowerment,Youth Affairs,Agriculture,Animal Husbandry, Dairying & Fisheries,Children,Disaster Management,Drinking Water,Education & Literacy,Environment & Forests,Micro Finance (SHGs),Micro Small & Medium Enterprises,Nutrition,Rural Development & Poverty Alleviation,Tribal Affairs,Vocational Training,Water Resources,Women's Development & Empowerment,Youth Affairs",
    "address":"Flat No. 15, 7-A Shravan, Plot No.5-1, Nagri Niwara, Goregaon (East), Mumbai – 400065",
    "lat":19.164385549745916,
    "lon":72.84186345140385
    },
    {
    "name":"maranatha harvest mission orphanage",
    "description":"Children",
    "address":"MARANATHA HARVEST MISSION ORPHANAGE, DR. BABASAHEB AMBEDKAR NAGAR, TILAK NAGAR ROAD NO 03, TILAK NAGAR, CHEMBUR, MUMBAI",
    "lat":19.065396704718133, 
    "lon":72.89777519558045
    },
    {
    "name":"SISTERS OF CHARITY OF ST ANNE",
    "description":"Children",
    "address":"MAHAKALI CAVES ROAD MIDC PO CHAKALA ANDHERI EAST",
    "lat":19.1165628705397, 
    "lon": 72.86096520907424
    },
    {
    "name":"Sood Charity Foundation",
    "description":"Children",
    "address":"Shakti Sagar Sood Productions, 10, A&B, JP Rd, Aram Nagar Part 2, Machlimar, Versova, Andheri West, Mumbai, Maharashtra 400061",
    "lat":19.141899201771967, 
    "lon":72.80570183976171
    },
    {
    "name":"TRISHUL",
    "description":"Children,Education & Literacy,Rural Development & Poverty Alleviation,Women's Development & Empowerment",
    "address":"602, GODS GIFT TOWER, YARI ROAD, VERSOVA, ANDHERI WEST",
    "lat":19.133718379186874,
    "lon":72.8144026497491
    },
    {
    "name":"Purnata",
    "description":"Children",
    "address":"A/306, Pranik Chambers, Saki Vihar Road, Saki Naka, Mumbai 400072",
    "lat":19.105455398684896, 
    "lon":72.88723452441738
    },
    
    {
    "name":"Western Region Social Service Forum",
    "description":"Agriculture,Children,Education & Literacy,Health & Family Welfare,HIV/AIDS,Water Resources,Women's Development & Empowerment",
    "address":"201, 2nd Floor, Sarvodaya, St. Pius College Campus, Aarey Road, Goregoan (E), Mumbai400 063",
    "lat":19.1772904809991, 
    "lon":72.86281202738274
    },
    {
    "name":"Kherwadi Social Welfare Association",
    "description":"Children,Civic Issues,Aged/Elderly,Minority Issues,Women's Development & Empowerment,Dalit Upliftment,Youth Affairs",
    "address":"Kherwadi Social Welfare Association, Parishramalaya, Ram Mandir Rd, Kherwadi, Bandra East, Mumbai, Maharashtra 400051",
    "lat":19.063670414302393, 
    "lon":72.84425852256537
    },
    {
    "name":"Shree Hari Narayan Seva Sansthan",
    "description":"Agriculture,Children,Aged/Elderly,Environment & Forests,Health & Family Welfare,HIV/AIDS,Animal Husbandry, Dairying & Fisheries,Art & Culture,Disaster Management,Drinking Water,Education & Literacy,Food Processing,Labour & Employment,Land Resources,Micro Small & Medium Enterprises,Panchayati Raj,Rural Development & Poverty Alleviation,Sports,Tourism,Vocational Training,Women's Development & Empowerment,Biotechnology,Civic Issues,New & Renewable Energy,Nutrition,Science & Technology,Tribal Affairs,Urban Development & Poverty Alleviation,Youth Affairs,Skill Development",
    "address":"129, Watson's Hotel, 144, Mahatma Gandhi Road, Mantralaya, Fort, Mumbai, Maharashtra 400023",
    "lat":18.929348954629326,
    "lon":72.83137719742787
    },
    {
    "name":"mahila vikas kendra",
    "description":"Civic Issues,Dalit Upliftment,Education & Literacy,Health & Family Welfare,Human Rights,Legal Awareness & Aid,Micro Finance (SHGs),Micro Small & Medium Enterprises,Nutrition,Vocational Training,Skill Development,Children,Urban Development & Poverty Alleviation",
    "address":"PLOT NO 165 CHAKKI KHAN, SANTACRUZ EAST",
    "lat":19.0896464686238, 
    "lon":72.86327570599666
    },
    {
    "name":"All India Institute of Local Self Government",
    "description":"Disaster Management,Education & Literacy,Micro Finance (SHGs),Minority Issues,Right to Information & Advocacy,Urban Development & Poverty Alleviation,Water Resources,Women's Development & Empowerment,Agriculture,Children,Differently Abled,Drinking Water,Aged/Elderly,Environment & Forests,Health & Family Welfare,HIV/AIDS,Housing,Human Rights,Information & Communication Technology,New & Renewable Energy,Nutrition,Panchayati Raj,Rural Development & Poverty Alleviation,Tribal Affairs,Vocational Training",
    "address":"M. N. Roy Human Development Campus, Plot No.6,F-Block, Opp. Government Colony Bldg. No.326,Near Uttar Bhartiya Sangh, TPS Road No.12, Bandra-E, Mumbai – 400051.",
    "lat":19.074684817575097,  
    "lon": 72.85263245571824
    },
    {
    "name":"Samajik Janaseva Karyakari Sanstha",
    "description":"Art & Culture,Children,Dalit Upliftment,Education & Literacy,Aged/Elderly,Legal Awareness & Aid,Micro Finance (SHGs),Micro Small & Medium Enterprises,Tribal Affairs,Urban Development & Poverty Alleviation,Vocational Training,Women's Development & Empowerment,Youth Affairs",
    "address":"4R3Q+QRR, Navpada, Amboli, Vile Parle West, Mumbai, Maharashtra 400056",
    "lat":19.12136594875399,  
    "lon": 72.83675451199332
    },
    {
    "name":"ECHO FOUNDATION",
    "description":"Rural Development & Poverty Alleviation,Art & Culture,Children,Dalit Upliftment,Drinking Water,Education & Literacy,Aged/Elderly,Environment & Forests,Health & Family Welfare,HIV/AIDS,Information & Communication Technology,Micro Finance (SHGs),Sports,Urban Development & Poverty Alleviation,Vocational Training,Women's Development & Empowerment,Youth Affairs,Any Other",
    "address":"Shiv Veer, swami samarth temple lane, Sector 5, Sector 8, Kandivali West, Mumbai, Maharashtra 400067",
    "lat":19.216750478530773,  
    "lon":72.82196019558451
    },
    {
    "name":"KEEP HOPE ALIVE FOUNDATION",
    "description":"Children,Education & Literacy,Health & Family Welfare,Women's Development & Empowerment",
    "address":"AZMI NAGAR GATE NO 7 MALWANI MALAD WESTMUMBAI400095",
    "lat":19.1866447687583,  
    "lon":72.81564142627042
    },
    {
    "name":"RED BOYS FOUNDATION",
    "description":"Children,Civic Issues,Education & Literacy,Science & Technology,Tourism,Vocational Training,Women's Development & Empowerment,Youth Affairs",
    "address":"PLOT NO 2 ROOM NO 113 BHARAT NAGAR BANDRA EAST MUMBAI 400051",
    "lat":19.063936928768673,  
    "lon":72.85660098023709
    },
    {
    "name":"DEEPJYOTI SEVA SANSTHA",
    "description":"Children,Civic Issues,Education & Literacy,Food Processing,Health & Family Welfare,Human Rights,Legal Awareness & Aid,Micro Finance (SHGs),Rural Development & Poverty Alleviation,Women's Development & Empowerment,Youth Affairs,HIV/AIDS,Science & Technology,Sports,Tribal Affairs,Urban Development & Poverty Alleviation,Vocational Training",
    "address":"D11 Satiram House Gulshan Nagar KD Compound, opp. Krishna Hindu Hotel, Kandivali, lalji pada, Mahatma Gandhi Nagar, Mumbai, Maharashtra 400067",
    "lat":19.207310546764894, 
    "lon":72.83530413497525
    },
    {
    "name":"Shravak seva sanstha",
    "description":"Children,Sports,Youth Affairs,Any Other",
    "address":"120, Topiwala Rd, Kakaji Nagar, Jawahar Nagar, Goregaon West, Mumbai, Maharashtra 400104",
    "lat":19.164277404404633, 
    "lon":72.84765426489639
    },
    {
    "name":"HELP YOURSELF FOUNDATION",
    "description":"Children,Differently Abled,Education & Literacy,Nutrition,Women's Development & Empowerment,Skill Development,Health & Family Welfare,Disaster Management,Children,Differently Abled,Disaster Management,Education & Literacy,Nutrition,Sports,Women's Development & Empowerment",
    "address":" Rizvi House, 1st Floor, Junction of Hill Road, St Martins Rd, Bandra West, Mumbai, Maharashtra 400050",
    "lat":19.056212927076825,  
    "lon":72.8353576722971
    },
    {
    "name":"Breastfeeding Promotion Network of India",
    "description":"Children,Health & Family Welfare,Nutrition",
    "address":"Era Signal, Rolex Apartment, B 2, Swami Vivekananda Rd, Malad, Navy Colony, Mamledarwadi, Malad West, Mumbai, Maharashtra 400064",
    "lat":19.184715442166038,  
    "lon":72.84670508764398
    },
    {
    "name":"Vishwa Samvad Kendra",
    "description":"Agriculture,Animal Husbandry, Dairying & Fisheries,Art & Culture,Children,Civic Issues,Dalit Upliftment,Differently Abled,Disaster Management,Drinking Water,Education & Literacy,Aged/Elderly,Environment & Forests,Health & Family Welfare,HIV/AIDS,Housing,Human Rights,Information & Communication Technology,Labour & Employment,Legal Awareness & Aid,Micro Finance (SHGs),Micro Small & Medium Enterprises,Minority Issues,New & Renewable Energy,Nutrition,Panchayati Raj,Prisoner's Issues,Right to Information & Advocacy,Rural Development & Poverty Alleviation,Science & Technology,Sports,Tribal Affairs,Urban Development & Poverty Alleviation,Women's Development & Empowerment,Youth Affairs",
    "address":"219, Sita Niwas, Dr. Ambedkar Road, Opp. Central Railway Ground, Parel, Mumbai, Maharashtra 400012",
    "lat":19.14581399757828, 
    "lon":72.82157675990054
    },
    {
    "name":"Umang Foundation",
    "description":"Art & Culture,Children,Education & Literacy,Human Rights,Skill Development,Any Other,Agriculture,Civic Issues,Differently Abled,Aged/Elderly,Health & Family Welfare,Micro Small & Medium Enterprises,Rural Development & Poverty Alleviation,Vocational Training,Women's Development & Empowerment,Youth Affairs",
    "address":"Ruby Building, Nirmal Lifestyles Residency - Phase 2, 1506/07, Lal Bahadur Shastri Marg, Moti Nagar, Mulund Colony, Mulund West, Mumbai, Maharashtra 400080",
    "lat":19.17505364387216,  
    "lon":72.93522801973225
    },
    {
    "name":"Shree Vibhuti Narayan Charity Trust",
    "description":"Children,Civic Issues,Dalit Upliftment,Differently Abled,Disaster Management,Education & Literacy,Aged/Elderly,Environment & Forests,Health & Family Welfare,Human Rights,Labour & Employment,Legal Awareness & Aid,Micro Finance (SHGs),New & Renewable Energy,Panchayati Raj,Right to Information & Advocacy,Tribal Affairs,Vocational Training,Women's Development & Empowerment,Youth Affairs,Any Other,Skill Development",
    "address":"Corporate annex, 311, Sonawala Cross Rd Number 2, Sonawala Industry Estate, Goregaon, Mumbai, Maharashtra 400063",
    "lat":19.16522847814252,
    "lon":72.85219518797359
    },
    {
    "name":"YUVAA FOUNDATION",
    "description":"Agriculture,Art & Culture,Children,Dalit Upliftment,Differently Abled,Education & Literacy,Aged/Elderly,Rural Development & Poverty Alleviation,Sports,Women's Development & Empowerment,Youth Affairs,Any Other,Skill Development",
    "address":"C wing 201, Vrindavan CHS Ltd, BHD Dindoshi Bus Depot, Malad East, Mumbai, Maharashtra 400097",
    "lat":19.186986317488774, 
    "lon":72.86457345441818
    },
    {
    "name":"Pritgandh Foundation",
    "description":"Agriculture,Art & Culture,Children,Civic Issues,Differently Abled,Aged/Elderly,Environment & Forests,Health & Family Welfare,HIV/AIDS,Sports,Urban Development & Poverty Alleviation,Women's Development & Empowerment,Youth Affairs",
    "address":"10, Yadav Niwas, Ekroop Mitra Mandal, Tembhipada, Bhandup West, Mumbai, Maharashtra 400078",
    "lat":19.154018196078766,  
    "lon":72.93065635140356
    },
    {
    "name":"Jay Maa Itelai Charitable Trust",
    "description":"Agriculture,Art & Culture,Children,Civic Issues,Differently Abled,Disaster Management,Drinking Water,Education & Literacy,Aged/Elderly,Health & Family Welfare,HIV/AIDS,Nutrition,Sports,Tribal Affairs,Women's Development & Empowerment",
    "address":"8, Mhada Rd, Malad, Reserve Bank of India Staff Quarters, Raheja Twp, Malad West, Mumbai, Maharashtra 400095",
    "lat":19.176806951409176, 
    "lon":72.81410923606073
    },
    {
    "name":"CHILD DREAM'S SOCIAL FOUNDATION",
    "description":"Agriculture,Animal Husbandry, Dairying & Fisheries,Art & Culture,Biotechnology,Children,Civic Issues,Dalit Upliftment,Differently Abled,Disaster Management,Drinking Water,Education & Literacy,Aged/Elderly,Environment & Forests,Food Processing,Health & Family Welfare,HIV/AIDS,Housing,Human Rights,Information & Communication Technology,Labour & Employment,Land Resources,Legal Awareness & Aid,Micro Finance (SHGs),Micro Small & Medium Enterprises,Minority Issues,New & Renewable Energy,Nutrition,Panchayati Raj,Prisoner's Issues,Right to Information & Advocacy,Rural Development & Poverty Alleviation,Science & Technology,Scientific & Industrial Research,Sports,Tourism,Tribal Affairs,Urban Development & Poverty Alleviation,Vocational Training,Water Resources,Women's Development & Empowerment,Youth Affairs,Any Other,Skill Development",
    "address":"Office no-348, 3rd floor, BMC Building, Bhandup (W, Bhandup West, Mumbai, Maharashtra 400078",
    "lat":19.145563532097807, 
    "lon":72.93744992395438
    },
    {
    "name":"Swayamsiddha Foundation",
    "description":"Animal Husbandry, Dairying & Fisheries,Art & Culture,Children,Dalit Upliftment,Education & Literacy,Aged/Elderly,Food Processing,Health & Family Welfare,Housing,Labour & Employment,Micro Small & Medium Enterprises,Women's Development & Empowerment,Youth Affairs,Skill Development",
    "address":"402, Rele Smruti,, Nadiyadwala Colony No.1,, S.V. Road, Malad (West), Mumbai, Maharashtra 400064",
    "lat":19.181661318037676, 
    "lon":72.8448830151256
    },
    {
    "name":"Sukachi Sawali Welfare Foundation",
    "description":"Children,Education & Literacy,Food Processing,Health & Family Welfare,Human Rights,Labour & Employment,Skill Development",
    "address":"1408, Bldg no 2, Morarji Mill Compound, Kandivali, Ashok Nagar, Kandivali East, Mumbai, Maharashtra 400101",
    "lat":19.203365906387525, 
    "lon":72.85741006971035
    },
    {
    "name":"Sanskruti Kala Darpan",
    "description":"Children,Education & Literacy,Food Processing,Nutrition",
    "address":"Anand Nagar, A3/5, Sitladevi Temple Road, Mahim (W), Suryakiran Housing Society, Mahim United Industrial Estate, Mahim, Mumbai, Maharashtra 400016",
    "lat":19.037032586064164, 
    "lon":72.84688011970975
    },
    {
    "name":"NEHRU NAGAR SEVA SANSTHA VILE PARLE",
    "description":"Art & Culture,Children,Drinking Water,Education & Literacy,Aged/Elderly,Health & Family Welfare,Human Rights,Sports,Youth Affairs",
    "address":"Opp.mithibhai college, Vaikunthlal Mehta Rd, Nehru Nagar, Vile Parle West, Mumbai, Maharashtra 400056",
    "lat":19.10238504334447,
    "lon":72.83680279558143
    },
    {
    "name":"Jai Shree Mahakal Foundation",
    "description":"Children,Civic Issues,Dalit Upliftment,Differently Abled,Education & Literacy,Aged/Elderly,Health & Family Welfare,HIV/AIDS,Women's Development & Empowerment",
    "address":"Shop No 02, Trivedi Niwas, New Nagardas Rd, Patel Wadi, Pat, Andheri East, Mumbai, Maharashtra 400069",
    "lat":19.122748576110048, 
    "lon":72.84785856859706
    }
    
    ]